<?xml version="1.0" encoding="UTF-8"?>
<kml xmlns="http://www.opengis.net/kml/2.2">
  <Document>
    <name>Límite Patarani con Chijllapata Collpaputunku y Catariri.gpx</name>
    <Style id="icon-503-DB4436-nodesc-normal">
      <IconStyle>
        <color>ff3644db</color>
        <scale>1.1</scale>
        <Icon>
          <href>https://www.gstatic.com/mapspro/images/stock/503-wht-blank_maps.png</href>
        </Icon>
        <hotSpot x="16" xunits="pixels" y="32" yunits="insetPixels"/>
      </IconStyle>
      <LabelStyle>
        <scale>0</scale>
      </LabelStyle>
      <BalloonStyle>
        <text><![CDATA[<h3>$[name]</h3>]]></text>
      </BalloonStyle>
    </Style>
    <Style id="icon-503-DB4436-nodesc-highlight">
      <IconStyle>
        <color>ff3644db</color>
        <scale>1.1</scale>
        <Icon>
          <href>https://www.gstatic.com/mapspro/images/stock/503-wht-blank_maps.png</href>
        </Icon>
        <hotSpot x="16" xunits="pixels" y="32" yunits="insetPixels"/>
      </IconStyle>
      <LabelStyle>
        <scale>1.1</scale>
      </LabelStyle>
      <BalloonStyle>
        <text><![CDATA[<h3>$[name]</h3>]]></text>
      </BalloonStyle>
    </Style>
    <StyleMap id="icon-503-DB4436-nodesc">
      <Pair>
        <key>normal</key>
        <styleUrl>#icon-503-DB4436-nodesc-normal</styleUrl>
      </Pair>
      <Pair>
        <key>highlight</key>
        <styleUrl>#icon-503-DB4436-nodesc-highlight</styleUrl>
      </Pair>
    </StyleMap>
    <Placemark>
      <name>001 POZO DEL BAÑO</name>
      <styleUrl>#icon-503-DB4436-nodesc</styleUrl>
      <Point>
        <coordinates>
          -66.9306042417884,-19.2486590892076,0
        </coordinates>
      </Point>
    </Placemark>
    <Placemark>
      <name>002 ÑEKECAJA</name>
      <styleUrl>#icon-503-DB4436-nodesc</styleUrl>
      <Point>
        <coordinates>
          -66.9221932534128,-19.2541039735079,0
        </coordinates>
      </Point>
    </Placemark>
    <Placemark>
      <name>003 KARAJOKO</name>
      <styleUrl>#icon-503-DB4436-nodesc</styleUrl>
      <Point>
        <coordinates>
          -66.9162363186479,-19.2623025644571,0
        </coordinates>
      </Point>
    </Placemark>
    <Placemark>
      <name>004 COTAÑA</name>
      <styleUrl>#icon-503-DB4436-nodesc</styleUrl>
      <Point>
        <coordinates>
          -66.9160246755928,-19.2814071010798,0
        </coordinates>
      </Point>
    </Placemark>
    <Placemark>
      <name>005 QUIWILLA</name>
      <styleUrl>#icon-503-DB4436-nodesc</styleUrl>
      <Point>
        <coordinates>
          -66.9129662867635,-19.2916574981064,0
        </coordinates>
      </Point>
    </Placemark>
    <Placemark>
      <name>006 NIÑOSAMAÑA</name>
      <styleUrl>#icon-503-DB4436-nodesc</styleUrl>
      <Point>
        <coordinates>
          -66.9128051027656,-19.2998955678195,0
        </coordinates>
      </Point>
    </Placemark>
    <Placemark>
      <name>007 CAMINO A CRUCERO</name>
      <styleUrl>#icon-503-DB4436-nodesc</styleUrl>
      <Point>
        <coordinates>
          -66.9145865924656,-19.3056766502559,0
        </coordinates>
      </Point>
    </Placemark>
    <Placemark>
      <name>008 COROMATAQI</name>
      <styleUrl>#icon-503-DB4436-nodesc</styleUrl>
      <Point>
        <coordinates>
          -66.9169138278812,-19.3122746329755,0
        </coordinates>
      </Point>
    </Placemark>
    <Placemark>
      <name>009 TRIPARTITA BANDERAIMANTAÑA</name>
      <styleUrl>#icon-503-DB4436-nodesc</styleUrl>
      <Point>
        <coordinates>
          -66.9162431918085,-19.3148176185787,0
        </coordinates>
      </Point>
    </Placemark>
    <Placemark>
      <name>010 BANDERAIMANTAÑA ITO IGM</name>
      <styleUrl>#icon-503-DB4436-nodesc</styleUrl>
      <Point>
        <coordinates>
          -66.9148520473391,-19.314741762355,0
        </coordinates>
      </Point>
    </Placemark>
    <Placemark>
      <name>011 DIVISION NIÑOSAMAÑA CON MALLCUJANTHA</name>
      <styleUrl>#icon-503-DB4436-nodesc</styleUrl>
      <Point>
        <coordinates>
          -66.907288050279,-19.310634797439,0
        </coordinates>
      </Point>
    </Placemark>
  </Document>
</kml>
